[
  {
    "stationId": "A1",
    "name": "สุวรรณภูมิ",
    "nameEng": "Suvamabhumi",
    "transportationId": "1",
    "subdistrictId": "110309",
    "geoLat": "13.698430460292863",
    "geoLng": "100.75222224366766"
  },
  {
    "stationId": "A2",
    "name": "ลาดกระบัง",
    "nameEng": "Lat Krabang",
    "transportationId": "1",
    "subdistrictId": "",
    "geoLat": "13.727821743748192",
    "geoLng": "100.74736600578052"
  },
  {
    "stationId": "A3",
    "name": "บ้านทับช้าง",
    "nameEng": "Ban Thap Chang",
    "transportationId": "1",
    "subdistrictId": "103203",
    "geoLat": "13.732814119012762",
    "geoLng": "100.69131829068533"
  },
  {
    "stationId": "A4",
    "name": "หัวหมาก",
    "nameEng": "Hua Mak",
    "transportationId": "1",
    "subdistrictId": "",
    "geoLat": "13.73803476768113",
    "geoLng": "100.64517337833085"
  },
  {
    "stationId": "A5",
    "name": "รามคำแหง",
    "nameEng": "Ramkhamhaeng",
    "transportationId": "1",
    "subdistrictId": "103401",
    "geoLat": "13.743032742356274",
    "geoLng": "100.60015057327637"
  },
  {
    "stationId": "A6",
    "name": "มักกะสัน",
    "nameEng": "Makkasan",
    "transportationId": "1",
    "subdistrictId": "103704",
    "geoLat": "13.751188237864156",
    "geoLng": "100.56075394308388"
  },
  {
    "stationId": "A7",
    "name": "ราชปรารภ",
    "nameEng": "Ratchaprarop",
    "transportationId": "1",
    "subdistrictId": "103704",
    "geoLat": "13.755199349761293",
    "geoLng": "100.54212229725891"
  },
  {
    "stationId": "A8",
    "name": "พญาไท",
    "nameEng": "Phaya Thai",
    "transportationId": "1",
    "subdistrictId": "103702",
    "geoLat": "13.75676690283936",
    "geoLng": "100.53484178279176"
  }
]